City_ID,City,Cloudiness,Country,Date,Humidity,Lat,Lng,Max Temp,Wind Speed
0,sydney,0,AU,1586105521,76,-33.87,151.21,61.0,6.93
1,nairobi,40,KE,1586105730,56,-1.28,36.82,73.4,11.41
2,severo-kurilsk,18,RU,1586105149,88,50.68,156.12,29.53,6.02
3,darhan,100,MN,1586105149,58,49.49,105.92,31.91,8.9
4,hillsborough,90,US,1586105150,87,37.57,-122.38,55.4,13.87
5,atlanta,90,US,1586104989,56,33.75,-84.39,78.01,3.36
6,cairo,4,EG,1586105272,44,30.06,31.25,75.2,10.29
