City_ID,City,Cloudiness,Country,Date,Humidity,Lat,Lng,Max Temp,Wind Speed
0,upernavik,58,GL,1586486019,87,72.79,-56.15,13.15,8.7
1,muravlenko,93,RU,1586486019,96,63.79,74.52,28.49,26.87
2,price,1,US,1586486019,40,39.6,-110.81,53.6,3.36
3,butaritari,100,KI,1586486020,77,3.07,172.79,84.58,10.33
4,bure,93,ET,1586486020,35,10.7,37.07,64.9,0.69
5,tutin,0,RS,1586486020,55,42.99,20.33,38.8,3.42
6,busselton,100,AU,1586485893,43,-33.65,115.33,80.01,9.4
7,kapaa,90,US,1586485880,73,22.08,-159.32,78.8,10.29
8,socorro,20,US,1586485973,16,31.65,-106.3,75.2,10.29
9,vokhma,100,RU,1586486020,89,58.93,46.76,39.52,8.16
10,hilo,90,US,1586486020,69,19.73,-155.09,78.8,9.17
11,pacific grove,90,US,1586485869,67,36.62,-121.92,60.8,4.7
12,tuktoyaktuk,40,CA,1586486020,84,69.45,-133.04,8.6,18.34
13,sechura,87,PE,1586486020,74,-5.56,-80.82,74.71,12.71
14,severo-kurilsk,86,RU,1586486020,95,50.68,156.12,31.44,7.16
15,nanortalik,91,GL,1586486020,91,60.14,-45.24,31.96,11.1
16,port alfred,98,ZA,1586486020,60,-33.59,26.89,69.39,4.41
17,caravelas,100,BR,1586486021,88,-17.71,-39.25,76.1,11.61
18,tasiilaq,100,GL,1586486021,62,65.61,-37.64,21.2,4.7
19,puerto del rosario,97,ES,1586486021,82,28.5,-13.86,68.0,6.93
20,ndele,85,CF,1586486021,71,8.41,20.65,73.33,3.62
21,chokurdakh,90,RU,1586486021,95,70.63,147.92,19.67,16.33
22,albany,20,US,1586485868,48,42.6,-73.97,42.8,19.46
23,deniliquin,34,AU,1586485752,76,-35.53,144.97,64.99,6.62
24,ushuaia,100,AR,1586485956,48,-54.8,-68.3,60.8,14.99
25,arraial do cabo,25,BR,1586486021,71,-22.97,-42.03,73.78,11.59
26,carnarvon,0,AU,1586486021,69,-24.87,113.63,82.4,6.93
27,barrow,1,US,1586486021,77,71.29,-156.79,1.4,13.87
28,east london,44,ZA,1586486021,61,-33.02,27.91,68.52,5.37
29,ilulissat,0,GL,1586486022,42,69.22,-51.1,28.4,6.93
30,dikson,93,RU,1586485983,93,73.51,80.55,9.32,15.79
31,nikolskoye,26,RU,1586486022,69,59.7,30.79,37.4,11.18
32,college,40,US,1586486022,32,64.86,-147.8,26.6,11.41
33,cairns,75,AU,1586485793,62,-16.92,145.77,88.0,12.75
34,avarua,100,CK,1586486022,84,-21.21,-159.78,86.0,11.41
35,goure,92,NE,1586486022,15,13.98,10.27,77.04,7.7
36,faanui,81,PF,1586486022,74,-16.48,-151.75,83.3,7.0
37,vaini,20,TO,1586486022,57,-21.2,-175.2,80.6,12.75
38,luderitz,30,NA,1586486022,59,-26.65,15.16,60.8,8.05
39,babugarh,39,IN,1586486022,19,28.72,77.85,85.35,6.22
40,tokur,18,RU,1586486022,51,53.13,132.9,40.14,8.37
41,guerrero negro,0,MX,1586486022,66,27.98,-114.06,59.65,19.08
42,shingu,40,JP,1586486022,38,33.73,135.98,59.0,17.22
43,naze,20,JP,1586486023,49,28.37,129.48,73.4,14.99
44,mataura,0,NZ,1586486023,77,-46.19,168.86,60.01,13.0
45,vostok,6,RU,1586486079,44,46.49,135.88,43.48,8.25
46,ostrovnoy,31,RU,1586486080,94,68.05,39.51,12.18,14.23
47,bluff,24,NZ,1586486080,77,-46.6,168.33,60.01,13.0
48,hami,0,CN,1586486080,19,42.8,93.45,64.0,12.46
49,pisco,10,PE,1586486080,83,-13.7,-76.22,73.99,3.36
50,hermanus,100,ZA,1586486080,87,-34.42,19.23,60.01,4.7
51,puerto ayora,7,EC,1586485865,83,-0.74,-90.35,80.01,2.68
52,ouadda,97,CF,1586486080,74,8.08,22.4,69.73,1.52
53,beyneu,25,KZ,1586486081,61,45.32,55.2,42.8,14.45
54,yanam,3,IN,1586486081,71,16.73,82.22,83.75,5.91
55,longyearbyen,40,SJ,1586486056,65,78.22,15.64,5.0,11.41
56,evensk,86,RU,1586486081,86,61.95,159.23,21.97,4.12
57,porto novo,27,BJ,1586486081,82,6.5,2.6,81.01,5.01
58,kichera,78,RU,1586486081,45,55.94,110.1,45.82,1.16
59,ancud,90,CL,1586486081,100,-41.87,-73.82,53.6,13.87
60,garden city,40,US,1586486021,80,42.33,-83.33,37.4,10.29
61,shima,0,CN,1586486082,46,24.45,117.81,73.4,6.71
62,chambersburg,1,US,1586486082,70,39.94,-77.66,45.0,17.22
63,lebu,79,CL,1586486082,88,-37.62,-73.65,51.91,4.92
64,rikitea,100,PF,1586486082,69,-23.12,-134.97,76.71,7.4
65,necochea,0,AR,1586486082,95,-38.55,-58.74,53.01,1.99
66,hobart,75,AU,1586486082,40,-42.88,147.33,69.8,23.04
67,port hardy,75,CA,1586485811,81,50.7,-127.42,50.0,11.41
68,ararat,75,AM,1586486082,87,39.83,44.7,42.8,1.12
69,souillac,40,MU,1586486083,78,-20.52,57.52,78.8,5.82
70,vila franca do campo,20,PT,1586486083,87,37.72,-25.43,59.0,5.82
71,mar del plata,75,AR,1586486083,93,-38.0,-57.56,61.0,6.64
72,saint-joseph,3,RE,1586486083,69,-21.37,55.62,77.0,4.7
73,amapa,92,BR,1586486083,94,1.0,-52.0,74.26,2.1
74,pimentel,31,PE,1586486083,83,-6.84,-79.93,72.55,11.63
75,jamestown,90,US,1586486046,100,42.1,-79.24,35.01,18.5
76,dongsheng,91,CN,1586486084,31,39.82,109.98,39.4,16.11
77,new norfolk,75,AU,1586486084,40,-42.78,147.06,69.8,23.04
78,aksu,100,CN,1586486084,17,41.12,80.26,64.53,2.82
79,taoudenni,0,ML,1586486084,15,22.68,-3.98,79.47,10.56
80,svetlogorsk,70,BY,1586486084,69,52.63,29.73,42.76,13.49
81,ostersund,99,SE,1586486084,92,63.18,14.64,30.2,17.22
82,misratah,19,LY,1586486084,57,32.38,15.09,59.07,5.88
83,grand gaube,40,MU,1586486085,78,-20.01,57.66,78.8,5.82
84,manggar,61,ID,1586486085,65,-2.88,108.27,86.95,4.18
85,chicama,100,PE,1586486085,72,-7.84,-79.15,74.79,6.6
86,sola,58,VU,1586486085,79,-13.88,167.55,80.98,17.94
87,uarini,100,BR,1586486085,96,-2.99,-65.11,74.14,3.09
88,barinitas,99,VE,1586486085,54,8.76,-70.41,76.35,1.32
89,saldanha,100,ZA,1586486139,83,-33.01,17.94,61.09,4.38
90,kavieng,17,PG,1586486139,73,-2.57,150.8,84.43,7.25
91,georgetown,20,MY,1586486110,83,5.41,100.34,86.0,4.7
92,los llanos de aridane,14,ES,1586486140,77,28.66,-17.92,69.8,9.17
93,santana do mundau,40,BR,1586486140,94,-9.17,-36.22,77.0,2.24
94,eureka,90,US,1586486140,71,40.8,-124.16,55.99,5.82
95,machico,20,PT,1586486140,72,32.7,-16.77,64.4,12.75
96,tanout,95,NE,1586485979,14,14.97,8.89,78.62,9.26
97,vodnyy,100,RU,1586486140,92,63.5,53.41,32.32,2.75
98,sitka,75,US,1586486140,60,57.05,-135.33,42.8,14.99
99,burgeo,41,CA,1586486140,93,47.62,-57.62,29.5,7.81
100,wonthaggi,100,AU,1586486140,83,-38.6,145.59,66.0,3.0
101,punta arenas,40,CL,1586485930,50,-53.15,-70.92,53.6,24.16
102,beruwala,14,LK,1586486140,72,6.48,79.98,82.89,3.89
103,tiksi,100,RU,1586486140,87,71.69,128.87,34.07,15.7
104,yellowknife,90,CA,1586486141,85,62.46,-114.35,23.0,6.93
105,pangai,0,TO,1586486141,71,-19.8,-174.35,77.97,11.97
106,kitgum,36,UG,1586486141,51,3.28,32.89,69.28,2.1
107,chuy,2,UY,1586486141,86,-33.7,-53.46,59.43,8.41
108,lufilufi,84,WS,1586486141,70,-13.87,-171.6,89.01,13.0
109,blagoyevo,81,RU,1586486141,96,63.37,47.92,28.9,6.11
110,bafata,0,GW,1586486141,82,12.17,-14.75,69.94,5.32
111,saskylakh,3,RU,1586486141,92,71.92,114.08,25.75,19.51
112,cidreira,17,BR,1586486142,83,-30.18,-50.21,62.15,7.38
113,la serena,88,CL,1586486142,77,-29.91,-71.25,60.8,3.36
114,ponta do sol,20,PT,1586486142,72,32.67,-17.1,64.4,12.75
115,egvekinot,17,RU,1586486142,87,66.32,-179.17,3.38,7.49
116,saint-pierre,2,RE,1586486142,69,-21.34,55.48,77.0,4.7
117,gambela,100,ET,1586485959,61,8.25,34.58,76.24,4.27
118,bredasdorp,99,ZA,1586486142,71,-34.53,20.04,51.8,4.16
119,comodoro rivadavia,100,AR,1586486097,37,-45.87,-67.5,71.6,8.05
120,vao,9,NC,1586486142,66,-22.67,167.48,74.79,14.09
121,yar-sale,100,RU,1586486142,97,66.83,70.83,34.0,21.32
122,lazurne,0,UA,1586486142,63,46.08,32.53,51.01,9.57
123,kahului,40,US,1586486143,65,20.89,-156.47,80.6,10.29
124,hasaki,40,JP,1586486143,47,35.73,140.83,61.0,11.41
125,bethel,1,US,1586486143,52,41.37,-73.41,48.0,8.05
126,umm lajj,100,SA,1586486143,45,25.02,37.27,71.13,11.3
127,minab,19,IR,1586486143,64,27.15,57.08,71.6,2.24
128,gushikawa,1,JP,1586486143,46,26.35,127.87,73.4,14.99
129,port blair,42,IN,1586486143,62,11.67,92.75,82.35,4.23
130,sukumo,48,JP,1586486143,41,32.93,132.73,60.13,10.22
131,lazaro cardenas,1,MX,1586485869,74,17.96,-102.2,75.09,2.13
132,caluquembe,0,AO,1586486143,58,-13.78,14.68,58.17,4.45
133,lagoa,100,PT,1586486144,79,39.05,-27.98,61.0,6.17
134,carutapera,100,BR,1586486199,83,-1.2,-46.02,79.52,5.44
135,conde,7,BR,1586486199,88,-7.26,-34.91,80.6,2.24
136,quelimane,40,MZ,1586486199,83,-17.88,36.89,77.0,6.93
137,aklavik,75,CA,1586486200,61,68.22,-135.01,14.0,8.05
138,zhigansk,100,RU,1586486200,96,66.77,123.37,34.11,13.47
139,mercedes,0,AR,1586486200,81,-34.65,-59.43,59.0,4.5
140,santa marta,49,CO,1586485956,84,11.24,-74.2,82.0,14.12
141,riyadh,91,SA,1586486065,25,24.69,46.72,86.0,5.82
142,salinas,75,US,1586486200,77,36.68,-121.66,61.0,9.17
143,esperance,8,AU,1586486200,53,-33.87,121.9,77.0,3.36
144,saint-philippe,4,RE,1586486200,69,-21.36,55.77,77.0,4.7
145,mangan,0,IN,1586486200,17,27.52,88.53,76.39,1.52
146,lillooet,1,CA,1586486200,52,50.69,-121.94,68.0,9.17
147,ribeira grande,100,PT,1586486200,85,38.52,-28.7,61.25,3.96
148,barela,0,IN,1586486200,11,23.1,80.05,88.56,4.47
149,saint andrews,1,US,1586486201,28,34.05,-81.13,75.2,14.99
150,atuona,98,PF,1586486201,80,-9.8,-139.03,82.18,15.37
151,dillon,1,US,1586486201,28,34.42,-79.37,77.0,17.22
152,uruana,98,BR,1586486201,78,-15.5,-49.69,70.48,1.41
153,gornopravdinsk,33,RU,1586486201,97,60.05,69.9,31.19,10.87
154,wuwei,5,CN,1586486201,23,37.93,102.64,47.59,7.0
155,cabo san lucas,90,MX,1586485936,68,22.89,-109.91,73.4,4.7
156,airai,14,TL,1586486201,57,-8.93,125.41,70.41,2.39
157,hithadhoo,1,MV,1586486201,68,-0.6,73.08,84.16,8.46
158,galt,90,US,1586485909,93,38.25,-121.3,62.6,6.67
159,talara,36,PE,1586486201,71,-4.58,-81.27,76.12,10.29
160,khonsa,7,IN,1586486201,23,27.02,95.57,80.46,3.47
161,grindavik,100,IS,1586486202,80,63.84,-22.43,33.8,5.82
162,bambous virieux,40,MU,1586486203,78,-20.34,57.76,78.8,5.82
163,santa marinella,0,IT,1586486203,100,42.03,11.85,53.01,1.12
164,saint anthony,75,US,1586486203,51,45.02,-93.22,37.4,14.99
165,mahon,0,ES,1586486203,93,39.89,4.27,53.6,6.93
166,agadez,31,NE,1586486203,19,19.75,10.25,69.35,8.03
167,emerald,40,AU,1586486203,45,-23.53,148.17,84.99,8.05
168,castro,0,BR,1586486203,68,-24.79,-50.01,52.9,3.24
169,cape town,82,ZA,1586486094,87,-33.93,18.42,61.0,4.7
170,chernyshevskiy,100,RU,1586486204,85,63.01,112.47,33.31,9.17
171,ballina,75,AU,1586486204,100,-28.87,153.57,71.6,4.7
172,thompson,20,CA,1586486069,53,55.74,-97.86,21.2,4.7
173,san remigio,4,PH,1586486204,64,11.08,123.94,85.42,6.78
174,vangaindrano,100,MG,1586486204,92,-23.35,47.6,72.55,10.4
175,lerwick,100,GB,1586485915,81,60.15,-1.15,44.6,12.75
176,nanakuli,75,US,1586486204,65,21.39,-158.15,80.6,13.87
177,victoria,0,HK,1586486038,50,22.29,114.16,77.0,19.46
178,vila velha,97,BR,1586486134,94,-20.33,-40.29,70.0,3.36
179,teknaf,1,BD,1586486204,58,20.86,92.31,86.43,2.73
180,lorengau,14,PG,1586486204,73,-2.02,147.27,84.42,5.93
181,elliot lake,90,CA,1586486259,74,46.38,-82.63,33.8,18.34
182,port elizabeth,100,ZA,1586486259,87,-33.92,25.57,59.0,2.24
183,khandyga,99,RU,1586486260,93,62.67,135.6,32.95,4.99
184,edd,0,ER,1586486260,56,13.93,41.69,83.86,4.88
185,torbay,5,CA,1586486260,74,47.67,-52.73,30.0,16.11
186,hovd,23,MN,1586486218,28,48.01,91.64,45.9,3.87
187,qaanaaq,4,GL,1586486260,85,77.48,-69.36,2.21,5.32
188,avera,1,US,1586486260,46,33.19,-82.53,73.4,9.17
189,nantucket,1,US,1586486236,66,41.28,-70.1,44.6,17.22
190,mojo,20,ET,1586486261,59,8.6,39.12,60.8,2.24
191,beringovskiy,81,RU,1586486261,94,63.05,179.32,14.95,10.51
192,husavik,87,IS,1586486261,79,66.04,-17.34,24.8,1.12
193,moerai,100,PF,1586486261,84,-22.43,-151.33,82.0,12.93
194,port macquarie,75,AU,1586486261,77,-31.43,152.92,70.0,5.82
195,kallithea,0,GR,1586486262,61,37.95,23.7,57.2,3.36
196,akyab,23,MM,1586486262,66,20.15,92.9,84.81,1.74
197,puerto escondido,26,MX,1586486262,66,15.85,-97.07,80.26,4.18
198,mount isa,40,AU,1586486262,28,-20.73,139.5,82.4,8.05
199,iquitos,75,PE,1586486262,88,-3.75,-73.25,78.8,1.12
200,ambilobe,0,MG,1586486262,86,-13.2,49.05,71.51,4.65
201,cherskiy,78,RU,1586485985,91,68.75,161.3,6.87,11.36
202,hastings,2,GB,1586486262,100,50.86,0.57,53.01,11.41
203,krasnoselkup,100,RU,1586486106,97,65.7,82.47,26.56,28.41
204,unai,3,BR,1586486262,72,-16.36,-46.91,71.96,1.86
205,bengkulu,26,ID,1586486262,60,-3.8,102.27,87.4,1.83
206,wilmington,1,US,1586486229,36,34.23,-77.94,77.0,12.75
207,acapulco,5,MX,1586486008,88,16.86,-99.89,78.8,8.05
208,namibe,0,AO,1586486262,53,-15.2,12.15,75.63,12.37
209,tiarei,81,PF,1586486263,66,-17.53,-149.33,87.8,10.29
210,bonavista,0,CA,1586486263,81,48.65,-53.11,30.0,15.01
211,broome,1,US,1586486263,74,42.25,-75.83,37.99,9.17
212,talnakh,90,RU,1586486263,92,69.49,88.4,21.2,35.79
213,ailigandi,100,PA,1586486263,87,9.23,-78.02,79.32,7.56
214,sept-iles,20,CA,1586486263,86,50.2,-66.38,28.99,6.93
215,amazar,20,RU,1586486263,42,53.86,120.88,47.52,4.25
216,san jose,75,US,1586486130,63,37.34,-121.89,62.6,6.93
217,korem,94,ET,1586486263,33,12.51,39.52,55.02,1.5
218,oktyabrskoye,0,RU,1586486263,55,43.06,44.74,38.86,1.5
219,korostyshiv,70,UA,1586486263,79,50.32,29.06,48.45,12.26
220,kolda,0,SN,1586485986,52,12.88,-14.95,71.58,5.01
221,teguise,75,ES,1586486263,82,29.06,-13.56,68.0,10.29
222,karratha,26,AU,1586486264,42,-20.74,116.85,89.56,7.81
223,kodiak,1,US,1586486264,41,57.79,-152.41,42.8,6.93
224,ust-nera,86,RU,1586486264,88,64.57,143.2,25.54,6.8
225,nyon,0,CH,1586486264,81,46.38,6.24,53.01,2.24
226,maumere,14,ID,1586486264,71,-8.62,122.21,84.09,2.53
227,vanavara,100,RU,1586486319,68,60.34,102.28,37.26,8.88
228,porosozero,84,RU,1586486320,95,62.72,32.73,24.76,3.69
229,hofn,100,IS,1586486320,90,64.25,-15.21,33.24,14.81
230,kavaratti,2,IN,1586486320,67,10.57,72.64,84.47,10.56
231,barguzin,96,RU,1586486320,42,53.62,109.62,50.77,2.06
232,aras,91,ES,1586486320,76,42.56,-2.36,55.99,6.93
233,clyde river,1,CA,1586486320,84,70.47,-68.59,3.2,13.87
234,alofi,75,NU,1586486320,79,-19.06,-169.92,84.2,8.05
235,general pico,0,AR,1586486320,60,-35.66,-63.76,53.02,9.69
236,khatanga,100,RU,1586486321,95,71.97,102.5,19.26,26.62
237,krivosheino,65,RU,1586486321,81,57.34,83.93,34.66,9.35
238,sayyan,0,YE,1586486321,18,15.17,44.32,55.02,1.36
239,cayenne,100,GF,1586486215,94,4.93,-52.33,78.8,8.05
240,kamiiso,75,JP,1586486321,80,41.82,140.65,41.0,6.93
241,amboasary,80,MG,1586486321,86,-25.03,46.38,69.37,13.22
242,channel-port aux basques,90,CA,1586486321,94,47.57,-59.14,31.05,10.47
243,polonnaruwa,0,LK,1586486321,62,7.93,81.0,84.61,5.91
244,najran,3,SA,1586486321,17,17.49,44.13,71.6,4.7
245,balakovo,65,RU,1586486321,71,52.03,47.8,42.73,14.94
246,coos bay,90,US,1586486289,87,43.37,-124.22,55.0,13.87
247,gandorhun,0,SL,1586486322,92,7.5,-11.83,77.13,2.8
248,vanimo,69,PG,1586486322,70,-2.67,141.3,85.08,8.05
249,sao joao da barra,96,BR,1586486322,77,-21.64,-41.05,71.6,6.89
250,abu kamal,0,SY,1586486322,58,34.45,40.92,59.04,9.24
251,samarai,4,PG,1586486322,69,-10.62,150.67,84.07,9.6
252,two hills,100,CA,1586486322,80,53.72,-111.75,34.9,7.0
253,am timan,99,TD,1586486322,52,11.03,20.28,79.11,3.69
254,kajaani,18,FI,1586486322,92,64.23,27.73,17.6,1.12
255,requena,100,ES,1586486322,87,39.49,-1.1,59.0,2.24
256,broken hill,0,AU,1586486323,33,-31.95,141.43,71.6,16.11
257,calatayud,100,ES,1586486323,87,41.35,-1.64,57.2,4.7
258,jose bonifacio,0,BR,1586486323,60,-21.05,-49.69,71.6,2.82
259,salalah,20,OM,1586486323,83,17.02,54.09,78.8,2.24
260,mpulungu,98,ZM,1586486323,58,-8.76,31.11,73.49,10.71
261,hambantota,9,LK,1586486323,73,6.12,81.12,82.62,5.91
262,tinskoy,100,RU,1586486323,83,56.15,96.92,35.85,3.06
263,creel,17,MX,1586486324,36,27.75,-107.63,45.3,6.6
264,angoche,58,MZ,1586486324,85,-16.23,39.91,76.44,11.18
265,sao miguel do araguaia,74,BR,1586486240,83,-13.28,-50.16,73.92,1.7
266,rawson,12,AR,1586486324,52,-43.3,-65.1,67.95,25.88
267,san quintin,2,MX,1586486324,69,30.48,-115.95,58.86,9.53
268,waitati,0,NZ,1586486324,51,-45.75,170.57,66.0,7.0
269,lasa,2,IT,1586486324,92,46.62,10.7,48.99,2.24
270,raga,56,SS,1586486324,56,8.46,25.68,76.24,5.21
271,norman wells,75,CA,1586486324,42,65.28,-126.83,28.4,13.87
272,hajnowka,0,PL,1586486324,77,52.74,23.58,39.99,1.99
273,rockland,1,US,1586486147,42,41.17,-74.05,48.99,12.75
274,chirongui,20,YT,1586486380,74,-12.93,45.15,84.2,12.75
275,batagay-alyta,51,RU,1586486380,68,67.8,130.41,35.51,11.16
276,kaeo,11,NZ,1586486380,53,-35.1,173.78,70.0,5.99
277,ercis,75,TR,1586486380,87,39.03,43.36,42.8,4.92
278,andros town,0,BS,1586486110,88,24.7,-77.77,77.0,4.7
279,hobyo,70,SO,1586486380,64,5.35,48.53,82.09,6.87
280,hervey bay,75,AU,1586486380,88,-25.3,152.85,79.0,4.7
281,margate,3,GB,1586486381,100,51.38,1.39,51.01,4.7
282,hohhot,20,CN,1586486381,38,40.81,111.65,42.8,20.13
283,ugoofaaru,50,MV,1586486381,73,5.67,73.0,84.06,4.05
284,muscat,0,OM,1586486381,78,23.61,58.59,78.8,2.24
285,antsohihy,0,MG,1586486381,76,-14.88,47.99,75.18,6.44
286,buala,29,SB,1586486381,70,-8.14,159.59,85.19,5.1
287,northam,100,GB,1586486382,71,51.03,-4.22,57.0,10.0
288,yeniseysk,100,RU,1586486382,78,58.45,92.17,35.58,6.44
289,leningradskiy,20,RU,1586486382,88,69.38,178.42,0.88,1.92
290,nome,90,US,1586486382,79,64.5,-165.41,21.99,14.99
291,dakar,0,SN,1586486382,83,14.69,-17.44,73.4,4.7
292,asau,0,RO,1586486382,69,46.43,26.4,48.99,2.24
293,takoradi,1,GH,1586486383,86,4.88,-1.76,80.83,6.08
294,pevek,84,RU,1586486383,89,69.7,170.31,-0.08,4.45
295,cap malheureux,40,MU,1586486383,78,-19.98,57.61,78.8,5.82
296,biltine,80,TD,1586486383,31,14.53,20.92,78.89,3.74
297,san carlos de bariloche,74,AR,1586486383,70,-41.15,-71.31,46.4,3.42
298,sistranda,75,NO,1586486384,59,63.73,8.83,37.4,20.8
299,quatre cocos,40,MU,1586486384,78,-20.21,57.76,78.8,5.82
300,havre-saint-pierre,1,CA,1586486384,92,50.23,-63.6,24.8,3.36
301,ibirapitanga,99,BR,1586486384,89,-14.16,-39.37,74.79,1.41
302,bambanglipuro,63,ID,1586486384,63,-7.95,110.28,86.18,5.55
303,pangnirtung,0,CA,1586486384,79,66.15,-65.71,11.3,3.76
304,itoman,20,JP,1586486384,53,26.12,127.67,73.4,14.99
305,conroe,75,US,1586486202,88,30.31,-95.46,73.0,3.36
306,meulaboh,87,ID,1586486385,68,4.14,96.13,82.31,3.98
307,puerto baquerizo moreno,0,EC,1586486385,86,-0.9,-89.6,79.75,4.34
308,cabedelo,17,BR,1586486385,88,-6.98,-34.83,80.6,2.24
309,flinders,90,AU,1586486385,93,-34.58,150.86,66.99,4.7
310,hereford,97,GB,1586486385,87,52.06,-2.71,52.0,2.48
311,hailar,0,CN,1586486386,30,49.2,119.7,50.16,8.99
312,raudeberg,99,NO,1586486386,69,61.99,5.14,37.4,3.36
313,iqaluit,20,CA,1586486386,72,63.75,-68.51,10.4,5.82
314,mahebourg,40,MU,1586486386,78,-20.41,57.7,78.8,5.82
315,altagracia de orituco,100,VE,1586486386,66,9.86,-66.38,75.78,3.78
316,thaba-tseka,42,LS,1586486387,44,-29.52,28.61,44.69,4.27
317,praya,0,CV,1586486439,57,14.92,-23.51,75.2,11.41
318,vikhorevka,100,RU,1586486439,65,56.12,101.16,41.0,8.95
319,tiznit,100,MA,1586486440,62,29.58,-9.5,60.69,3.56
320,dalbandin,11,PK,1586486440,27,28.89,64.41,68.9,11.83
321,padang,100,ID,1586486400,61,-0.95,100.35,86.61,3.33
322,muisne,100,EC,1586486440,81,0.6,-80.03,77.54,3.56
323,saint george,1,US,1586486417,58,37.1,-113.58,55.99,9.17
324,iwaki,75,JP,1586486440,48,37.05,140.88,55.0,16.11
325,srednekolymsk,97,RU,1586486440,95,67.45,153.68,22.24,10.94
326,natal,20,BR,1586486440,94,-5.79,-35.21,78.8,3.36
327,coquimbo,95,CL,1586486440,77,-29.95,-71.34,60.8,3.36
328,geraldton,15,AU,1586486390,19,-28.77,114.6,96.8,12.75
329,mbekenyera,50,TZ,1586486441,87,-10.0,38.98,67.73,4.14
330,gadwal,0,IN,1586486169,47,16.23,77.8,85.8,6.42
331,mogadishu,3,SO,1586486441,70,2.04,45.34,82.99,4.94
332,ust-maya,82,RU,1586486441,81,60.42,134.53,35.55,2.42
333,kurtamysh,44,RU,1586486441,88,54.91,64.43,36.61,9.33
334,turukhansk,98,RU,1586486441,96,65.82,87.98,24.93,20.11
335,san cristobal,33,VE,1586486441,61,7.77,-72.22,68.65,1.86
336,lompoc,90,US,1586486441,76,34.64,-120.46,55.4,5.82
337,bayangol,0,RU,1586486441,25,50.7,103.47,52.16,1.61
338,sioux lookout,90,CA,1586486441,68,50.1,-91.92,28.4,11.41
339,nemuro,75,JP,1586486441,80,43.32,145.57,33.8,2.24
340,nara,75,JP,1586486441,37,34.69,135.8,59.0,9.17
341,sao filipe,0,CV,1586486442,71,14.9,-24.5,74.82,10.98
342,north platte,1,US,1586486231,32,41.12,-100.77,39.2,8.05
343,gamba,59,GA,1586486442,88,-2.65,10.0,79.65,6.69
344,yuksekova,90,TR,1586486442,93,37.57,44.29,41.0,4.7
345,sinnamary,100,GF,1586486442,85,5.38,-52.95,79.86,13.51
346,puerto narino,94,CO,1586486442,93,-3.77,-70.38,74.1,1.48
347,hualmay,78,PE,1586486442,80,-11.1,-77.61,72.03,6.53
348,eresos,0,GR,1586486442,58,39.17,25.93,55.4,8.05
349,matamoros,75,MX,1586486442,26,25.53,-103.25,84.2,23.04
350,ambon,40,ID,1586486157,79,-3.7,128.18,84.2,9.17
351,agadir,20,MA,1586486442,77,30.42,-9.6,64.4,3.36
352,rundu,0,NA,1586486443,77,-17.93,19.77,69.8,3.36
353,atar,0,MR,1586486443,16,20.52,-13.05,78.78,8.16
354,coihaique,100,CL,1586486443,81,-45.58,-72.07,53.6,8.05
355,chandler,20,US,1586486443,20,33.31,-111.84,71.01,5.82
356,ranong,96,TH,1586486443,74,9.97,98.63,87.8,2.39
357,lagunas,68,PE,1586486443,91,-5.23,-75.68,73.67,0.51
358,la orilla,2,MX,1586486443,74,17.98,-102.23,74.7,2.39
359,kushiro,40,JP,1586486443,69,42.98,144.37,35.6,4.7
360,penzance,98,GB,1586486443,93,50.12,-5.54,52.0,16.11
361,kundiawa,98,PG,1586486443,50,-6.02,144.97,69.26,1.34
362,alihe,42,CN,1586486443,30,50.57,123.72,52.56,7.47
363,calbuco,75,CL,1586486499,93,-41.77,-73.13,53.6,2.04
364,medea,40,DZ,1586486499,93,36.26,2.75,53.6,2.53
365,moron,0,AR,1586486459,87,-34.65,-58.62,62.6,3.36
366,mayo,1,US,1586486500,64,38.89,-76.51,52.0,18.34
367,gat,40,IL,1586486500,87,31.61,34.76,55.99,6.93
368,wenchi,2,GH,1586486500,81,7.74,-2.1,75.88,4.25
369,trelew,6,AR,1586486500,45,-43.25,-65.31,68.92,23.89
370,akureyri,100,IS,1586486500,79,65.68,-18.09,24.8,1.12
371,luau,72,AO,1586486500,71,-10.71,22.22,63.52,3.71
372,sulangan,16,PH,1586486500,70,11.14,123.72,83.64,8.52
373,ozubulu,99,NG,1586486500,86,5.96,6.85,77.61,4.59
374,hanyang,100,CN,1586486500,78,32.14,105.51,66.0,2.08
375,methoni,0,GR,1586486501,86,36.82,21.7,52.0,4.7
376,badhni kalan,74,IN,1586486501,31,30.68,75.28,79.65,7.05
377,megion,1,RU,1586486501,58,61.03,76.11,28.4,11.18
378,saint-raymond,75,CA,1586486259,86,45.47,-73.61,39.99,11.41
379,katsuura,75,JP,1586486501,53,35.13,140.3,61.0,17.22
380,ekibastuz,17,KZ,1586486501,62,51.67,75.37,39.15,9.89
381,beba,0,CU,1586486501,83,22.44,-79.73,77.0,3.36
382,tibati,99,CM,1586486501,67,6.47,12.63,68.77,1.32
383,yichun,3,CN,1586486501,36,47.7,128.9,51.35,6.93
384,rakiv lis,35,UA,1586486501,75,51.62,24.92,40.62,9.53
385,nova aurora,0,BR,1586486501,64,-22.87,-52.57,62.37,2.19
386,seguela,94,CI,1586486501,67,7.96,-6.67,74.75,4.76
387,cururupu,92,BR,1586486501,90,-1.83,-44.87,77.29,2.86
388,togur,42,RU,1586486502,87,58.36,82.83,32.65,8.75
389,jinchang,2,CN,1586486502,24,38.5,102.17,46.18,4.5
390,nishihara,20,JP,1586486502,60,26.18,127.76,73.4,11.41
391,zuwarah,1,LY,1586486502,53,32.93,12.08,60.15,12.71
392,belmonte,90,BR,1586486502,94,-15.86,-38.88,73.4,5.82
393,khorixas,74,NA,1586486502,36,-20.37,14.97,74.53,5.01
394,ucluelet,41,CA,1586486502,82,48.93,-125.55,52.0,1.01
395,merida,20,MX,1586486219,69,20.97,-89.62,82.99,11.41
396,fortuna,90,US,1586486502,76,40.6,-124.16,55.99,12.75
397,kashi,4,CN,1586486502,16,39.45,75.98,53.6,6.71
398,namatanai,84,PG,1586486502,75,-3.67,152.43,83.28,6.24
399,mehamn,99,NO,1586486503,88,71.04,27.85,25.81,19.62
400,melito di porto salvo,5,IT,1586486503,87,37.92,15.77,57.0,3.36
401,walvis bay,84,NA,1586486503,77,-22.96,14.51,62.6,2.24
402,marawi,20,PH,1586486503,42,8.0,124.29,85.87,4.32
403,north myrtle beach,1,US,1586486503,44,33.82,-78.68,77.0,10.29
404,brawley,90,US,1586486503,37,32.98,-115.53,66.2,5.82
405,labelle,40,US,1586486503,94,26.76,-81.44,78.8,4.7
406,henties bay,40,NA,1586486503,90,-22.12,14.28,61.0,1.5
407,vestmannaeyjar,100,IS,1586486503,70,63.44,-20.27,40.42,13.22
408,kirakira,21,SB,1586486503,72,-10.45,161.92,84.22,7.34
409,isangel,94,VU,1586486559,64,-19.55,169.27,77.77,14.7
410,bushehr,90,IR,1586486559,36,28.97,50.84,80.6,11.41
411,katangli,100,RU,1586486560,95,51.71,143.23,28.9,16.31
412,san andres,40,CO,1586486403,74,12.58,-81.7,82.4,8.05
413,saint-francois,0,FR,1586486560,80,46.42,3.91,41.0,2.24
414,balabac,21,PH,1586486560,64,7.99,117.06,86.22,11.01
415,provideniya,60,RU,1586486560,72,64.38,-173.3,15.8,13.42
416,achinsk,100,RU,1586486560,75,56.27,90.5,34.79,4.81
417,san juan,0,AR,1586486415,39,-31.54,-68.54,67.08,4.34
418,vulcan,0,RO,1586486560,46,45.38,23.27,42.94,0.56
419,labuan,75,MY,1586486412,70,5.28,115.24,87.8,3.36
420,iracoubo,100,GF,1586486560,86,5.48,-53.2,79.39,12.26
421,nampula,75,MZ,1586486560,88,-15.12,39.27,73.4,10.29
422,praia da vitoria,40,PT,1586486560,93,38.73,-27.07,57.2,7.43
423,atherton,100,GB,1586486560,87,53.52,-2.49,51.01,5.82
424,concordia,0,AR,1586486560,89,-31.39,-58.02,52.0,5.03
425,washington,1,US,1586486519,21,47.5,-120.5,71.6,5.82
426,skopje,0,MK,1586486346,48,42.0,21.43,37.4,4.68
427,ragay,11,PH,1586486561,50,13.82,122.79,88.05,5.5
428,abha,36,SA,1586486270,59,18.22,42.51,64.4,9.17
429,laguna,75,US,1586486561,59,38.42,-121.42,62.6,6.93
430,sibolga,100,ID,1586486561,66,1.74,98.78,84.25,1.25
431,bathsheba,40,BB,1586486561,78,13.22,-59.52,78.8,10.29
432,honiara,20,SB,1586486561,70,-9.43,159.95,89.6,11.41
433,ust-kulom,100,RU,1586486561,92,61.69,53.69,36.0,7.11
434,sicuani,75,PE,1586486561,23,-14.27,-71.23,46.69,1.3
435,ternate,0,ID,1586486561,61,0.8,127.4,86.56,6.78
436,ikalamavony,42,MG,1586486562,67,-21.15,46.58,63.72,5.39
437,linjiang,0,CN,1586486562,34,41.81,126.91,52.66,4.21
438,birao,98,CF,1586486562,54,10.28,22.79,77.45,4.83
439,bilibino,93,RU,1586486562,80,68.05,166.44,1.92,1.86
440,palu,22,ID,1586486520,60,-0.89,119.87,87.96,3.31
441,swiebodzice,20,PL,1586486562,80,50.86,16.33,46.99,6.93
442,miandrivazo,72,MG,1586486562,70,-19.52,45.47,76.05,3.11
443,usinsk,99,RU,1586486562,98,65.99,57.53,30.45,14.88
444,maralal,100,KE,1586486562,53,1.1,36.7,58.91,4.83
445,tuatapere,6,NZ,1586486562,77,-46.13,167.68,59.0,14.0
446,kanuma,40,JP,1586486562,35,36.55,139.73,52.0,10.29
447,baykit,96,RU,1586486563,79,61.67,96.37,33.64,10.07
448,kerman,75,IR,1586486563,87,30.28,57.08,53.6,4.7
449,ermelo,14,ZA,1586486563,58,-26.53,29.98,47.19,4.14
450,smithers,20,CA,1586486563,49,54.78,-127.17,46.4,17.22
451,kruisfontein,99,ZA,1586486563,45,-34.0,24.73,62.71,7.34
452,paamiut,100,GL,1586486563,98,61.99,-49.67,29.79,6.53
453,maun,75,BW,1586486563,100,-19.98,23.42,66.2,12.75
454,katherine,75,AU,1586486619,65,-14.47,132.27,78.8,10.29
455,santa cruz,0,BO,1586486467,56,-17.8,-63.17,69.8,5.82
456,port said,40,EG,1586486496,87,31.26,32.28,57.2,11.41
457,tsiroanomandidy,9,MG,1586486412,70,-18.77,46.03,62.87,4.36
458,sapa,54,PH,1586486620,70,5.15,120.32,82.74,5.3
459,nicoya,100,CR,1586486620,80,10.15,-85.45,73.0,15.99
460,xam nua,11,LA,1586486620,40,20.42,104.04,81.72,1.21
461,ingolstadt,3,DE,1586486620,80,48.77,11.43,48.99,1.12
462,kaitangata,0,NZ,1586486620,56,-46.28,169.85,63.14,2.91
463,villa maria,0,AR,1586486620,73,-32.41,-63.24,55.99,1.01
464,sambava,2,MG,1586486620,82,-14.27,50.17,75.25,8.52
465,teluknaga,40,ID,1586486620,74,-6.1,106.64,86.0,4.7
466,shache,100,CN,1586486620,16,38.42,77.24,61.56,11.39
467,bilma,100,NE,1586486620,16,18.69,12.92,74.64,14.72
468,ibra,0,OM,1586486620,37,22.69,58.53,80.31,0.49
469,taree,75,AU,1586486621,77,-31.9,152.47,70.0,5.82
470,oistins,40,BB,1586486621,78,13.07,-59.53,78.8,10.29
471,maningrida,98,AU,1586486621,67,-12.07,134.27,84.47,12.19
472,seda,0,LV,1586486621,90,57.65,25.75,33.01,1.01
473,lunenburg,100,CA,1586486622,92,44.38,-64.32,37.0,5.99
474,rodeo,1,US,1586486622,55,38.03,-122.27,62.6,5.82
475,poopo,12,BO,1586486622,16,-18.37,-66.97,49.01,5.3
476,pero pinheiro,75,PT,1586486622,100,38.86,-9.32,60.8,5.82
477,champasak,44,LA,1586486622,62,14.75,106.0,86.0,6.93
478,mitu,100,CO,1586486622,92,1.2,-70.17,74.16,0.34
479,codrington,100,AU,1586486622,61,-38.27,141.97,65.79,13.35
480,soyo,24,AO,1586486622,85,-6.13,12.37,79.75,7.58
481,beloha,97,MG,1586486622,79,-25.17,45.05,69.46,17.6
482,gunjur,0,GM,1586486623,61,13.2,-16.73,73.17,7.2
483,inhambane,68,MZ,1586486623,73,-23.86,35.38,71.17,8.61
484,harper,5,LR,1586486623,81,4.38,-7.72,80.04,3.78
485,romanovka,94,RU,1586486623,71,51.74,42.75,47.73,9.93
486,tokmak,0,UA,1586486623,62,47.25,35.71,46.44,3.51
487,isiolo,100,KE,1586486623,48,0.35,37.58,67.08,4.03
488,ketchikan,20,US,1586486543,49,55.34,-131.65,46.4,16.11
489,cocobeach,20,GA,1586486623,94,1.0,9.58,77.0,2.24
490,halifax,90,CA,1586486578,86,44.65,-63.57,37.0,20.8
491,cassilandia,0,BR,1586486623,78,-19.11,-51.73,66.24,2.8
492,burns lake,66,CA,1586486623,67,54.23,-125.75,37.76,4.23
493,bandarbeyla,67,SO,1586486624,67,9.49,50.81,79.54,4.54
494,half moon bay,90,US,1586486624,82,37.46,-122.43,62.6,5.82
495,faya,16,SA,1586486624,59,18.39,42.45,64.4,9.17
496,curuca,99,BR,1586486624,86,-0.73,-47.85,78.64,6.13
497,muriti,99,TZ,1586486624,58,-1.98,32.92,71.15,12.39
498,portland,20,US,1586486624,28,45.52,-122.68,73.4,16.11
499,komsomolskiy,21,UZ,1586486624,64,40.43,71.72,39.2,2.24
500,fort wellington,95,GY,1586486624,86,6.4,-57.6,78.64,11.79
501,terrasini,0,IT,1586486679,93,38.15,13.08,53.6,5.82
502,tecpan,5,GT,1586486424,78,14.76,-90.99,71.6,4.7
503,jackson,1,US,1586486549,17,42.42,-122.83,77.0,9.17
504,mattru,1,SL,1586486680,92,7.62,-11.83,77.09,2.77
505,nisia floresta,20,BR,1586486680,94,-6.09,-35.21,78.8,3.36
506,garowe,52,SO,1586486680,67,8.41,48.48,73.89,8.61
507,the pas,75,CA,1586486680,58,53.83,-101.25,24.8,5.82
508,bunia,100,CD,1586486680,68,1.57,30.25,65.88,1.57
509,camopi,100,GF,1586486680,95,3.17,-52.32,73.96,1.61
510,ploemeur,0,FR,1586486680,76,47.73,-3.43,57.0,6.93
511,strezhevoy,1,RU,1586486680,58,60.73,77.59,28.4,11.18
512,bloomingdale,1,US,1586486680,100,27.89,-82.24,77.0,4.7
513,mount gambier,100,AU,1586486541,77,-37.83,140.77,60.8,13.87
514,jalu,0,LY,1586486681,58,29.03,21.55,55.31,9.6
515,manacapuru,20,BR,1586486681,100,-3.3,-60.62,75.2,1.81
516,bubaque,0,GW,1586486681,64,11.28,-15.83,78.64,4.76
517,tanabe,40,JP,1586486681,38,33.73,135.37,59.0,17.22
518,dharchula,43,IN,1586486681,15,29.85,80.53,69.55,0.98
519,atambua,1,ID,1586486681,63,-9.11,124.89,81.59,3.06
520,darnah,0,LY,1586486681,71,32.77,22.64,57.15,16.98
521,powell river,40,CA,1586486681,51,49.85,-124.54,60.8,8.05
522,miura,75,JP,1586486681,41,35.14,139.62,61.0,14.99
523,ledyard,1,US,1586486681,52,41.44,-72.01,46.4,13.87
524,gayny,100,RU,1586486682,89,60.31,54.32,36.07,7.92
525,trairi,60,BR,1586486682,87,-3.28,-39.27,79.14,5.41
526,kamaishi,40,JP,1586486682,57,39.27,141.88,48.2,8.05
527,sann,44,PK,1586486682,64,26.04,68.14,73.4,2.24
528,tromso,75,NO,1586486608,74,69.65,18.96,28.4,27.51
529,charters towers,95,AU,1586486682,53,-20.1,146.27,81.43,8.39
530,morros,100,BR,1586486682,73,-9.45,-46.3,75.13,2.37
531,verkhniy avzyan,97,RU,1586486682,67,53.53,57.54,36.09,8.59
532,sa kaeo,100,TH,1586486682,58,13.81,102.07,88.74,0.87
533,tarauaca,56,BR,1586486682,77,-8.16,-70.77,77.0,1.32
534,goundam,100,ML,1586486682,12,16.41,-3.67,80.58,5.91
535,japura,84,ID,1586486683,80,-0.32,102.35,83.98,1.7
536,nioro,0,GM,1586486683,41,13.35,-15.75,72.91,5.57
537,port lincoln,100,AU,1586486639,54,-34.73,135.87,67.78,15.17
538,bose,0,IT,1586486683,57,45.46,8.01,55.99,3.36
539,kalmunai,23,LK,1586486683,63,7.42,81.82,85.21,4.92
540,olinda,40,BR,1586486683,74,-8.01,-34.86,84.2,5.82
541,brand-erbisdorf,88,DE,1586486683,86,50.87,13.33,44.01,2.24
542,ayabaca,45,PE,1586486683,57,-4.64,-79.71,51.53,1.14
543,anchorage,1,US,1586486503,31,61.22,-149.9,37.4,9.17
